{"regions":[{"name":"East Asia","description":"East Asia","key":"eastasia","public":true,"coordinates":{"latitude":"22.267","longitude":"114.188"},"city":"East Asia","state":"East Asia","zones":[]},{"name":"Southeast Asia","description":"Southeast Asia","key":"southeastasia","public":true,"coordinates":{"latitude":"1.283","longitude":"103.833"},"city":"Southeast Asia","state":"Southeast Asia","zones":[]},{"name":"Central US","description":"Central US","key":"centralus","public":true,"coordinates":{"latitude":"41.5908","longitude":"-93.6208"},"city":"Central US","state":"Central US","zones":[]},{"name":"East US","description":"East US","key":"eastus","public":true,"coordinates":{"latitude":"37.3719","longitude":"-79.8164"},"city":"East US","state":"East US","zones":[]},{"name":"East US 2","description":"East US 2","key":"eastus2","public":true,"coordinates":{"latitude":"36.6681","longitude":"-78.3889"},"city":"East US 2","state":"East US 2","zones":[]},{"name":"West US","description":"West US","key":"westus","public":true,"coordinates":{"latitude":"37.783","longitude":"-122.417"},"city":"West US","state":"West US","zones":[]},{"name":"North Central US","description":"North Central US","key":"northcentralus","public":true,"coordinates":{"latitude":"41.8819","longitude":"-87.6278"},"city":"North Central US","state":"North Central US","zones":[]},{"name":"South Central US","description":"South Central US","key":"southcentralus","public":true,"coordinates":{"latitude":"29.4167","longitude":"-98.5"},"city":"South Central US","state":"South Central US","zones":[]},{"name":"North Europe","description":"North Europe","key":"northeurope","public":true,"coordinates":{"latitude":"53.3478","longitude":"-6.2597"},"city":"North Europe","state":"North Europe","zones":[]},{"name":"West Europe","description":"West Europe","key":"westeurope","public":true,"coordinates":{"latitude":"52.3667","longitude":"4.9"},"city":"West Europe","state":"West Europe","zones":[]},{"name":"Japan West","description":"Japan West","key":"japanwest","public":true,"coordinates":{"latitude":"34.6939","longitude":"135.5022"},"city":"Japan West","state":"Japan West","zones":[]},{"name":"Japan East","description":"Japan East","key":"japaneast","public":true,"coordinates":{"latitude":"35.68","longitude":"139.77"},"city":"Japan East","state":"Japan East","zones":[]},{"name":"Brazil South","description":"Brazil South","key":"brazilsouth","public":true,"coordinates":{"latitude":"-23.55","longitude":"-46.633"},"city":"Brazil South","state":"Brazil South","zones":[]},{"name":"Australia East","description":"Australia East","key":"australiaeast","public":true,"coordinates":{"latitude":"-33.86","longitude":"151.2094"},"city":"Australia East","state":"Australia East","zones":[]},{"name":"Australia Southeast","description":"Australia Southeast","key":"australiasoutheast","public":true,"coordinates":{"latitude":"-37.8136","longitude":"144.9631"},"city":"Australia Southeast","state":"Australia Southeast","zones":[]},{"name":"South India","description":"South India","key":"southindia","public":true,"coordinates":{"latitude":"12.9822","longitude":"80.1636"},"city":"South India","state":"South India","zones":[]},{"name":"Central India","description":"Central India","key":"centralindia","public":true,"coordinates":{"latitude":"18.5822","longitude":"73.9197"},"city":"Central India","state":"Central India","zones":[]},{"name":"West India","description":"West India","key":"westindia","public":true,"coordinates":{"latitude":"19.088","longitude":"72.868"},"city":"West India","state":"West India","zones":[]},{"name":"Canada Central","description":"Canada Central","key":"canadacentral","public":true,"coordinates":{"latitude":"43.653","longitude":"-79.383"},"city":"Canada Central","state":"Canada Central","zones":[]},{"name":"Canada East","description":"Canada East","key":"canadaeast","public":true,"coordinates":{"latitude":"46.817","longitude":"-71.217"},"city":"Canada East","state":"Canada East","zones":[]},{"name":"UK South","description":"UK South","key":"uksouth","public":true,"coordinates":{"latitude":"50.941","longitude":"-0.799"},"city":"UK South","state":"UK South","zones":[]},{"name":"UK West","description":"UK West","key":"ukwest","public":true,"coordinates":{"latitude":"53.427","longitude":"-3.084"},"city":"UK West","state":"UK West","zones":[]},{"name":"West Central US","description":"West Central US","key":"westcentralus","public":true,"coordinates":{"latitude":"40.890","longitude":"-110.234"},"city":"West Central US","state":"West Central US","zones":[]},{"name":"West US 2","description":"West US 2","key":"westus2","public":true,"coordinates":{"latitude":"47.233","longitude":"-119.852"},"city":"West US 2","state":"West US 2","zones":[]},{"name":"Korea Central","description":"Korea Central","key":"koreacentral","public":true,"coordinates":{"latitude":"37.5665","longitude":"126.9780"},"city":"Korea Central","state":"Korea Central","zones":[]},{"name":"Korea South","description":"Korea South","key":"koreasouth","public":true,"coordinates":{"latitude":"35.1796","longitude":"129.0756"},"city":"Korea South","state":"Korea South","zones":[]},{"name":"France Central","description":"France Central","key":"francecentral","public":true,"coordinates":{"latitude":"46.3772","longitude":"2.3730"},"city":"France Central","state":"France Central","zones":[]},{"name":"France South","description":"France South","key":"francesouth","public":true,"coordinates":{"latitude":"43.8345","longitude":"2.1972"},"city":"France South","state":"France South","zones":[]},{"name":"Australia Central","description":"Australia Central","key":"australiacentral","public":true,"coordinates":{"latitude":"-35.3075","longitude":"149.1244"},"city":"Australia Central","state":"Australia Central","zones":[]},{"name":"Australia Central 2","description":"Australia Central 2","key":"australiacentral2","public":true,"coordinates":{"latitude":"-35.3075","longitude":"149.1244"},"city":"Australia Central 2","state":"Australia Central 2","zones":[]},{"name":"South Africa North","description":"South Africa North","key":"southafricanorth","public":true,"coordinates":{"latitude":"-25.731340","longitude":"28.218370"},"city":"South Africa North","state":"South Africa North","zones":[]},{"name":"South Africa West","description":"South Africa West","key":"southafricawest","public":true,"coordinates":{"latitude":"-34.075691","longitude":"18.843266"},"city":"South Africa West","state":"South Africa West","zones":[]}]}